{ "RESULTS": [
	{
		"name": "Lisbon, Portugal",
		"type": "city",
		"c": "PT",
		"zmw": "00000.54.08535",
		"tz": "Europe/Lisbon",
		"tzs": "WET",
		"l": "/q/zmw:00000.54.08535",
		"ll": "38.720001 -9.130000",
		"lat": "38.720001",
		"lon": "-9.130000"
	},
	{
		"name": "Lisburn, United Kingdom",
		"type": "city",
		"c": "GB",
		"zmw": "00000.24.03920",
		"tz": "Europe/London",
		"tzs": "GMT",
		"l": "/q/zmw:00000.24.03920",
		"ll": "54.520000 -6.040000",
		"lat": "54.520000",
		"lon": "-6.040000"
	},
	{
		"name": "Lisbon, Maine",
		"type": "city",
		"c": "US",
		"zmw": "04250.1.99999",
		"tz": "America/New_York",
		"tzs": "EST",
		"l": "/q/zmw:04250.1.99999",
		"ll": "44.029999 -70.099998",
		"lat": "44.029999",
		"lon": "-70.099998"
	},
	{
		"name": "Lisbon Falls, Maine",
		"type": "city",
		"c": "US",
		"zmw": "04252.1.99999",
		"tz": "America/New_York",
		"tzs": "EST",
		"l": "/q/zmw:04252.1.99999",
		"ll": "44.000000 -70.059998",
		"lat": "44.000000",
		"lon": "-70.059998"
	},
	{
		"name": "Lisbon, North Dakota",
		"type": "city",
		"c": "US",
		"zmw": "58054.1.99999",
		"tz": "America/Chicago",
		"tzs": "CST",
		"l": "/q/zmw:58054.1.99999",
		"ll": "46.439999 -97.680000",
		"lat": "46.439999",
		"lon": "-97.680000"
	},
	{
		"name": "Lisbon, Iowa",
		"type": "city",
		"c": "US",
		"zmw": "52253.1.99999",
		"tz": "America/Chicago",
		"tzs": "CST",
		"l": "/q/zmw:52253.1.99999",
		"ll": "41.919998 -91.389999",
		"lat": "41.919998",
		"lon": "-91.389999"
	},
	{
		"name": "Lisbon, New Hampshire",
		"type": "city",
		"c": "US",
		"zmw": "03585.1.99999",
		"tz": "America/New_York",
		"tzs": "EST",
		"l": "/q/zmw:03585.1.99999",
		"ll": "44.209999 -71.900002",
		"lat": "44.209999",
		"lon": "-71.900002"
	},
	{
		"name": "Lisbabe, Ireland",
		"type": "city",
		"c": "IE",
		"zmw": "00000.169.WEIKY",
		"tz": "Europe/Dublin",
		"tzs": "GMT",
		"l": "/q/zmw:00000.169.WEIKY",
		"ll": "52.080002 -9.350000",
		"lat": "52.080002",
		"lon": "-9.350000"
	},
	{
		"name": "Lisbao, Brazil",
		"type": "city",
		"c": "BR",
		"zmw": "00000.34.82113",
		"tz": "America/Manaus",
		"tzs": "AMT",
		"l": "/q/zmw:00000.34.82113",
		"ll": "-0.320000 -63.020000",
		"lat": "-0.320000",
		"lon": "-63.020000"
	},
	{
		"name": "Lisbaun, Australia",
		"type": "city",
		"c": "AU",
		"zmw": "00000.36.94879",
		"tz": "Australia/Sydney",
		"tzs": "EST",
		"l": "/q/zmw:00000.36.94879",
		"ll": "-38.119999 145.350006",
		"lat": "-38.119999",
		"lon": "145.350006"
	},
	{
		"name": "Lisbealadea, Ireland",
		"type": "city",
		"c": "IE",
		"zmw": "00000.84.03951",
		"tz": "Europe/Dublin",
		"tzs": "GMT",
		"l": "/q/zmw:00000.84.03951",
		"ll": "51.700001 -9.070000",
		"lat": "51.700001",
		"lon": "-9.070000"
	},
	{
		"name": "Lisbellaw, United Kingdom",
		"type": "city",
		"c": "GB",
		"zmw": "00000.30.03903",
		"tz": "Europe/London",
		"tzs": "GMT",
		"l": "/q/zmw:00000.30.03903",
		"ll": "54.320000 -7.530000",
		"lat": "54.320000",
		"lon": "-7.530000"
	},
	{
		"name": "Lisberg, Germany",
		"type": "city",
		"c": "DE",
		"zmw": "00000.179.10669",
		"tz": "Europe/Berlin",
		"tzs": "CET",
		"l": "/q/zmw:00000.179.10669",
		"ll": "49.880001 10.400000",
		"lat": "49.880001",
		"lon": "10.400000"
	},
	{
		"name": "Lisbia, Colombia",
		"type": "city",
		"c": "CO",
		"zmw": "00000.234.80234",
		"tz": "America/Bogota",
		"tzs": "COT",
		"l": "/q/zmw:00000.234.80234",
		"ll": "3.980000 -73.879997",
		"lat": "3.980000",
		"lon": "-73.879997"
	},
	{
		"name": "Lisbjerg, Denmark",
		"type": "city",
		"c": "DK",
		"zmw": "00000.21.06075",
		"tz": "Europe/Copenhagen",
		"tzs": "CET",
		"l": "/q/zmw:00000.21.06075",
		"ll": "56.220001 10.170000",
		"lat": "56.220001",
		"lon": "10.170000"
	},
	{
		"name": "Lisbjerg-Terp, Denmark",
		"type": "city",
		"c": "DK",
		"zmw": "00000.22.06075",
		"tz": "Europe/Copenhagen",
		"tzs": "CET",
		"l": "/q/zmw:00000.22.06075",
		"ll": "56.220001 10.190000",
		"lat": "56.220001",
		"lon": "10.190000"
	},
	{
		"name": "Lisbli, Liberia",
		"type": "city",
		"c": "LR",
		"zmw": "00000.963.65660",
		"tz": "Africa/Monrovia",
		"tzs": "GMT",
		"l": "/q/zmw:00000.963.65660",
		"ll": "6.280000 -10.040000",
		"lat": "6.280000",
		"lon": "-10.040000"
	},
	{
		"name": "Lisboa Soiane, Mozambique",
		"type": "city",
		"c": "MZ",
		"zmw": "00000.239.67327",
		"tz": "Africa/Maputo",
		"tzs": "CAT",
		"l": "/q/zmw:00000.239.67327",
		"ll": "-24.480000 34.009998",
		"lat": "-24.480000",
		"lon": "34.009998"
	},
	{
		"name": "Lisboa, Bolivia",
		"type": "city",
		"c": "BO",
		"zmw": "00000.68.83010",
		"tz": "America/La_Paz",
		"tzs": "BOT",
		"l": "/q/zmw:00000.68.83010",
		"ll": "-11.320000 -68.050003",
		"lat": "-11.320000",
		"lon": "-68.050003"
	},
	{
		"name": "Lisboa, Colombia",
		"type": "city",
		"c": "CO",
		"zmw": "00000.151.80222",
		"tz": "America/Bogota",
		"tzs": "COT",
		"l": "/q/zmw:00000.151.80222",
		"ll": "4.740000 -74.120003",
		"lat": "4.740000",
		"lon": "-74.120003"
	}
]
}
